{"_id":{"$oid":"56bfec9a0963c61338004c3c"},"name":"Ivan Vazov Theater","description":"National Theater","type":5,"priceRange":{"min":5,"max":15},"location":{"type":"Point","coordinates":[42.69467482947558,23.32646369934082]},"addedBy":{"$ref":"users","$id":"56bfa2020963c61338004c1d"}}
{"_id":{"$oid":"56bfecd10963c61338004c3d"},"name":"Bulgarian Army Stadium","type":6,"priceRange":{"min":0,"max":0},"location":{"type":"Point","coordinates":[42.68407587446008,23.340110778808594]},"addedBy":{"$ref":"users","$id":"56bfa2020963c61338004c1d"}}
{"_id":{"$oid":"56bfed650963c61338004c3e"},"name":"Chaika Park","type":9,"priceRange":{"min":0,"max":0},"location":{"type":"Point","coordinates":[42.69330274525184,23.326925039291382]},"addedBy":{"$ref":"users","$id":"56bfa2020963c61338004c1d"}}
{"_id":{"$oid":"56bff1370963c61338004c3f"},"name":"Cinema City","description":"Mall of Sofia Movie Theatre","type":5,"priceRange":{"min":8,"max":20},"location":{"type":"Point","coordinates":[42.697103501941186,23.30921173095703]},"addedBy":{"$ref":"users","$id":"56bfa2020963c61338004c1d"}}
{"_id":{"$oid":"56bff7400963c61338004c40"},"name":"Hotel Rodina","type":3,"priceRange":{"min":0,"max":0},"location":{"type":"Point","coordinates":[42.691552111024336,23.3089542388916]},"addedBy":{"$ref":"users","$id":"56bfa2020963c61338004c1d"}}
{"_id":{"$oid":"56bff75e0963c61338004c41"},"name":"NDK","description":"aka National Palace of Culture","type":5,"priceRange":{"min":0,"max":0},"location":{"type":"Point","coordinates":[42.688902408602985,23.318610191345215]},"addedBy":{"$ref":"users","$id":"56bfa2020963c61338004c1d"}}
{"_id":{"$oid":"56bff7780963c61338004c42"},"name":"Yuzhen Park","type":9,"priceRange":{"min":0,"max":0},"location":{"type":"Point","coordinates":[42.67937516379112,23.31719398498535]},"addedBy":{"$ref":"users","$id":"56bfa2020963c61338004c1d"}}
{"_id":{"$oid":"56bff79d0963c61338004c43"},"name":"Vasil Levski Stadium","type":6,"priceRange":{"min":0,"max":0},"location":{"type":"Point","coordinates":[42.68634723135848,23.331098556518555]},"addedBy":{"$ref":"users","$id":"56bfa2020963c61338004c1d"}}
{"_id":{"$oid":"56bff84e0963c61338004c44"},"name":"Burger King","description":"Fast Food","type":1,"priceRange":{"min":10,"max":25},"location":{"type":"Point","coordinates":[42.694958705185414,23.321099281311035]},"addedBy":{"$ref":"users","$id":"56bfa2020963c61338004c1d"}}
{"_id":{"$oid":"56bff8800963c61338004c45"},"name":"Central Railway Station","type":7,"priceRange":{"min":0,"max":0},"location":{"type":"Point","coordinates":[42.7111059421713,23.319082260131836]},"addedBy":{"$ref":"users","$id":"56bfa2020963c61338004c1d"}}
{"_id":{"$oid":"56bff8d60963c61338004c46"},"name":"UASG","description":"University of Architecture","type":4,"priceRange":{"min":0,"max":0},"location":{"type":"Point","coordinates":[42.685763626749804,23.33093762397766]},"addedBy":{"$ref":"users","$id":"56bfa2020963c61338004c1d"}}
{"_id":{"$oid":"56bff94c0963c61338004c47"},"name":"FMI","description":"Faculty of Matematics","type":4,"priceRange":{"min":0,"max":0},"location":{"type":"Point","coordinates":[42.67500539232029,23.330111503601074]},"addedBy":{"$ref":"users","$id":"56bfa2020963c61338004c1d"}}
{"_id":{"$oid":"56bff9ba0963c61338004c48"},"name":"National Academy of Arts","type":4,"priceRange":{"min":0,"max":0},"location":{"type":"Point","coordinates":[42.69493504892583,23.334628343582153]},"addedBy":{"$ref":"users","$id":"56bfa2020963c61338004c1d"}}
{"_id":{"$oid":"56c0046d0963c61338004c49"},"name":"Zaimov Park","type":9,"priceRange":{"min":0,"max":0},"location":{"type":"Point","coordinates":[42.69729274515729,23.33817958831787]},"addedBy":{"$ref":"users","$id":"56bfa2020963c61338004c1d"}}
{"_id":{"$oid":"56c004cc0963c61338004c4a"},"name":"Domino's pizza","type":1,"priceRange":{"min":10,"max":30},"location":{"type":"Point","coordinates":[42.67476875332569,23.308911323547363]},"addedBy":{"$ref":"users","$id":"56bfa2020963c61338004c1d"}}
{"_id":{"$oid":"56c006340963c61338004c4b"},"name":"test","description":"test","type":8,"priceRange":{"min":0,"max":0},"opened":{"from":true,"until":true},"location":{"type":"Point","coordinates":[42.69697733947673,23.313546180725098]},"addedBy":{"$ref":"users","$id":"56bfa2020963c61338004c1d"}}
{"_id":{"$oid":"56c006e10963c61338004c4c"},"name":"test2","description":"test2","type":8,"priceRange":{"min":0,"max":0},"opened":{"from":9,"until":15},"location":{"type":"Point","coordinates":[42.69448557828147,23.315348625183105]},"addedBy":{"$ref":"users","$id":"56bfa2020963c61338004c1d"}}
{"_id":{"$oid":"56c0085d0963c61338004c4d"},"name":"test3","type":7,"priceRange":{"min":"","max":""},"opened":{"from":0,"until":23.59},"location":{"type":"Point","coordinates":[42.6895017559477,23.313889503479004]},"addedBy":{"$ref":"users","$id":"56bfa2020963c61338004c1d"}}
{"_id":{"$oid":"56c008750963c61338004c4e"},"name":"test4","type":7,"priceRange":{"min":"","max":""},"opened":{"from":0,"until":23.59},"location":{"type":"Point","coordinates":[42.68634723135848,23.31775188446045]},"addedBy":{"$ref":"users","$id":"56bfa2020963c61338004c1d"}}
{"_id":{"$oid":"56c00a0a0963c61338004c4f"},"name":"trtert","type":9,"location":{"type":"Point","coordinates":[42.69893282887155,23.315820693969727]},"addedBy":{"$ref":"users","$id":"56bfa2020963c61338004c1d"}}
{"_id":{"$oid":"56c00a200963c61338004c50"},"name":"test5","type":7,"opened":{"from":0,"until":23.59},"location":{"type":"Point","coordinates":[42.70448356001091,23.32470417022705]},"addedBy":{"$ref":"users","$id":"56bfa2020963c61338004c1d"}}
{"_id":{"$oid":"56c00a530963c61338004c51"},"name":"test6","type":3,"opened":{"from":0,"until":23.59},"location":{"type":"Point","coordinates":[42.7055873394342,23.311872482299805]},"addedBy":{"$ref":"users","$id":"56bfa2020963c61338004c1d"}}
{"_id":{"$oid":"56c00aa10963c61338004c52"},"name":"test7","type":3,"opened":{"from":0,"until":23.59},"location":{"type":"Point","coordinates":[42.70612345378727,23.30251693725586]},"addedBy":{"$ref":"users","$id":"56bfa2020963c61338004c1d"}}
